$GPGGA,151242,4011.110,N,10504.831,W,1,06,1.4,1540.5,M,-20.9,M,,*4F
$GPGSA,A,3,,06,10,17,,24,26,30,,,,,2.9,1.4,2.5*3B
$GPGSV,2,1,08,05,16,188,32,06,64,314,50,10,54,055,52,17,28,271,48*74
$GPGSV,2,2,08,23,06,214,32,24,26,068,45,26,16,147,39,30,38,224,52*7D
$GPGGA,151243,4011.110,N,10504.831,W,1,06,1.4,1540.3,M,-20.9,M,,*48
$GPGSA,A,3,,06,10,17,,24,26,30,,,,,2.9,1.4,2.5*3B
$GPGSV,2,1,08,05,16,188,32,06,64,314,50,10,54,055,52,17,28,271,48*74
$GPGSV,2,2,08,23,06,214,32,24,26,068,45,26,16,147,39,30,38,224,52*7D
$GPGGA,151244,4011.111,N,10504.831,W,1,06,1.4,1540.1,M,-20.9,M,,*4C
$GPGSA,A,3,,06,10,17,,24,26,30,,,,,2.9,1.4,2.5*3B
$GPGSV,2,1,08,05,16,188,32,06,64,314,51,10,54,055,52,17,28,271,48*75
$GPGSV,2,2,08,23,06,214,00,24,26,068,45,26,16,147,39,30,38,224,52*7C
$GPGGA,151245,4011.111,N,10504.831,W,1,06,1.4,1539.8,M,-20.9,M,,*4A
$GPGSA,A,3,,06,10,17,,24,26,30,,,,,2.9,1.4,2.5*3B
$GPGSV,2,1,08,05,16,188,32,06,64,314,51,10,54,055,52,17,28,271,48*75
$GPGSV,2,2,08,23,06,214,00,24,26,068,45,26,16,147,39,30,38,224,52*7C
$GPGGA,151246,4011.111,N,10504.831,W,1,06,1.4,1539.6,M,-20.9,M,,*47
$GPGSA,A,3,,06,10,17,,24,26,30,,,,,2.9,1.4,2.5*3B
$GPGSV,2,1,08,05,16,188,32,06,64,314,51,10,54,055,52,17,28,271,48*75
$GPGSV,2,2,08,23,06,214,00,24,26,068,45,26,16,147,39,30,38,224,52*7C
$GPGGA,151247,4011.112,N,10504.831,W,1,06,1.4,1539.3,M,-20.9,M,,*40
$GPGSA,A,3,,06,10,17,,24,26,30,,,,,2.9,1.4,2.5*3B
$GPGSV,2,1,08,05,16,188,32,06,64,314,51,10,54,055,52,17,28,271,48*75
$GPGSV,2,2,08,23,06,214,00,24,26,068,45,26,16,147,39,30,38,224,52*7C
$GPGGA,151248,4011.112,N,10504.831,W,1,06,1.4,1539.0,M,-20.9,M,,*4C
$GPGSA,A,3,,06,10,17,,24,26,30,,,,,2.9,1.4,2.5*3B
$GPGSV,2,1,08,05,16,188,32,06,64,314,51,10,54,055,52,17,28,271,48*75
$GPGSV,2,2,08,23,06,214,00,24,26,068,45,26,16,147,39,30,38,224,52*7C
$GPGGA,151249,4011.112,N,10504.831,W,1,06,1.4,1538.8,M,-20.9,M,,*44
$GPGSA,A,3,,06,10,17,,24,26,30,,,,,2.9,1.4,2.5*3B
$GPGSV,2,1,08,05,16,188,32,06,64,314,51,10,54,055,51,17,28,271,48*76
$GPGSV,2,2,08,23,06,214,00,24,26,068,45,26,16,147,40,30,38,224,52*72
$GPGGA,151250,4011.113,N,10504.831,W,1,06,1.4,1538.6,M,-20.9,M,,*43
$GPGSA,A,3,,06,10,17,,24,26,30,,,,,2.9,1.4,2.5*3B
$GPGSV,2,1,08,05,16,188,32,06,64,314,51,10,54,055,51,17,28,271,47*79
$GPGSV,2,2,08,23,06,214,00,24,26,068,45,26,16,147,40,30,38,224,52*72
$GPGGA,151251,4011.113,N,10504.831,W,1,06,1.4,1538.4,M,-20.9,M,,*40
$GPGSA,A,3,,06,10,17,,24,26,30,,,,,2.9,1.4,2.5*3B
$GPGSV,2,1,08,05,16,188,32,06,64,314,51,10,54,055,51,17,28,271,47*79
$GPGSV,2,2,08,23,06,214,00,24,26,068,45,26,16,147,40,30,38,224,52*72
$GPGGA,151252,4011.113,N,10504.831,W,1,06,1.4,1538.3,M,-20.9,M,,*44
$GPGSA,A,3,,06,10,17,,24,26,30,,,,,2.9,1.4,2.5*3B
$GPGSV,2,1,08,05,16,188,32,06,64,314,51,10,54,055,51,17,28,271,47*79
$GPGSV,2,2,08,23,06,214,00,24,26,068,45,26,16,147,40,30,38,224,52*72
$GPGGA,151253,4011.113,N,10504.831,W,1,06,1.4,1538.2,M,-20.9,M,,*44
$GPGSA,A,3,,06,10,17,,24,26,30,,,,,2.9,1.4,2.5*3B
$GPGSV,2,1,08,05,16,188,32,06,64,314,51,10,54,055,51,17,28,271,47*79
$GPGSV,2,2,08,23,06,214,00,24,26,068,45,26,16,147,40,30,38,224,51*71
$GPGGA,151254,4011.114,N,10504.831,W,1,06,1.4,1538.1,M,-20.9,M,,*47
$GPGSA,A,3,,06,10,17,,24,26,30,,,,,2.9,1.4,2.5*3B
$GPGSV,2,1,08,05,16,188,32,06,64,314,51,10,54,055,51,17,28,271,47*79
$GPGSV,2,2,08,23,06,214,00,24,26,068,45,26,16,147,40,30,38,224,51*71
$GPGGA,151255,4011.114,N,10504.832,W,1,06,1.4,1538.1,M,-20.9,M,,*45
$GPGSA,A,3,,06,10,17,,24,26,30,,,,,2.9,1.4,2.5*3B
$GPGSV,2,1,08,05,16,188,32,06,64,314,51,10,54,055,51,17,28,271,47*79
$GPGSV,2,2,08,23,06,214,00,24,26,068,45,26,16,147,40,30,38,224,51*71
$GPGGA,151256,4011.114,N,10504.832,W,1,06,1.4,1538.1,M,-20.9,M,,*46
$GPGSA,A,3,,06,10,17,,24,26,30,,,,,2.9,1.4,2.5*3B
$GPGSV,2,1,08,05,16,188,32,06,64,314,51,10,54,055,51,17,28,271,47*79
$GPGSV,2,2,08,23,06,214,00,24,26,068,45,26,16,147,40,30,38,224,51*71
$GPGGA,151257,4011.114,N,10504.832,W,1,06,1.4,1538.1,M,-20.9,M,,*47
$GPGSA,A,3,,06,10,17,,24,26,30,,,,,2.9,1.4,2.5*3B
$GPGSV,2,1,08,05,16,188,32,06,64,314,51,10,54,055,51,17,28,271,47*79
$GPGSV,2,2,08,23,06,214,00,24,26,068,45,26,16,147,40,30,38,224,51*71
$GPGGA,151258,4011.114,N,10504.832,W,1,06,1.4,1538.1,M,-20.9,M,,*48
$GPGSA,A,3,,06,10,17,,24,26,30,,,,,2.9,1.4,2.5*3B
$GPGSV,2,1,08,05,16,188,32,06,64,314,51,10,54,055,51,17,28,271,47*79
$GPGSV,2,2,08,23,06,214,00,24,26,068,45,26,16,147,40,30,38,224,51*71
$GPGGA,151259,4011.115,N,10504.832,W,1,06,1.4,1538.2,M,-20.9,M,,*4B
$GPGSA,A,3,,06,10,17,,24,26,30,,,,,2.9,1.4,2.5*3B
$GPGSV,2,1,08,05,16,188,32,06,64,314,51,10,54,055,51,17,28,271,47*79
$GPGSV,2,2,08,23,06,214,00,24,26,068,45,26,16,147,40,30,38,224,51*71
$GPGGA,151300,4011.115,N,10504.832,W,1,06,1.4,1538.3,M,-20.9,M,,*47
$GPGSA,A,3,,06,10,17,,24,26,30,,,,,2.9,1.4,2.5*3B
$GPGSV,2,1,08,05,16,188,32,06,64,314,51,10,54,055,51,17,28,271,47*79
$GPGSV,2,2,08,23,06,214,00,24,26,068,46,26,16,147,40,30,38,224,51*72
$GPGGA,151301,4011.115,N,10504.832,W,1,06,1.4,1538.4,M,-20.9,M,,*41
$GPGSA,A,3,,06,10,17,,24,26,30,,,,,2.9,1.4,2.5*3B
$GPGSV,2,1,08,05,15,188,32,06,64,314,52,10,54,055,51,17,28,271,47*79
$GPGSV,2,2,08,23,06,214,00,24,26,068,46,26,16,147,40,30,38,224,51*72
$GPGGA,151302,4011.115,N,10504.832,W,1,06,1.4,1538.5,M,-20.9,M,,*43
$GPGSA,A,3,,06,10,17,,24,26,30,,,,,2.9,1.4,2.5*3B
$GPGSV,2,1,08,05,15,188,32,06,64,314,52,10,54,055,51,17,28,271,47*79
$GPGSV,2,2,08,23,06,214,00,24,26,068,46,26,16,147,39,30,38,224,51*7C
$GPGGA,151303,4011.115,N,10504.832,W,1,06,1.4,1538.7,M,-20.9,M,,*40
$GPGSA,A,3,,06,10,17,,24,26,30,,,,,2.9,1.4,2.5*3B
$GPGSV,2,1,08,05,15,188,32,06,64,314,52,10,54,055,51,17,28,271,47*79
$GPGSV,2,2,08,23,06,214,00,24,26,068,46,26,16,147,39,30,38,224,51*7C
$GPGGA,151304,4011.115,N,10504.832,W,1,06,1.4,1538.9,M,-20.9,M,,*49
$GPGSA,A,3,,06,10,17,,24,26,30,,,,,2.9,1.4,2.5*3B
$GPGSV,2,1,08,05,15,188,32,06,64,314,52,10,54,055,51,17,28,271,47*79
$GPGSV,2,2,08,23,06,214,00,24,26,068,46,26,16,147,39,30,38,224,51*7C
$GPGGA,151305,4011.115,N,10504.832,W,1,06,1.4,1539.2,M,-20.9,M,,*42
$GPGSA,A,3,,06,10,17,,24,26,30,,,,,2.9,1.4,2.5*3B
$GPGSV,2,1,08,05,15,188,32,06,65,314,52,10,54,055,51,17,28,271,47*78
$GPGSV,2,2,08,23,06,214,00,24,26,068,46,26,16,147,40,30,38,224,51*72
$GPGGA,151306,4011.115,N,10504.832,W,1,06,1.4,1539.4,M,-20.9,M,,*47
$GPGSA,A,3,,06,10,17,,24,26,30,,,,,2.9,1.4,2.5*3B
$GPGSV,2,1,08,05,15,188,32,06,65,314,52,10,54,055,51,17,28,271,47*78
$GPGSV,2,2,08,23,06,214,00,24,26,068,46,26,16,147,40,30,38,224,51*72
$GPGGA,151307,4011.115,N,10504.832,W,1,06,1.4,1539.8,M,-20.9,M,,*4A
$GPGSA,A,3,,06,10,17,,24,26,30,,,,,2.9,1.4,2.5*3B
$GPGSV,2,1,08,05,15,188,32,06,65,314,52,10,54,055,51,17,28,271,47*78
$GPGSV,2,2,08,23,06,214,00,24,26,068,46,26,16,147,40,30,38,224,51*72
$GPGGA,151308,4011.115,N,10504.832,W,1,06,1.4,1540.1,M,-20.9,M,,*42
$GPGSA,A,3,,06,10,17,,24,26,30,,,,,2.9,1.4,2.5*3B
$GPGSV,2,1,08,05,15,188,32,06,65,314,52,10,54,055,51,17,28,271,47*78
$GPGSV,2,2,08,23,06,214,00,24,26,068,46,26,16,147,40,30,38,224,51*72
$GPGGA,151309,4011.115,N,10504.832,W,1,06,1.4,1540.4,M,-20.9,M,,*46
$GPGSA,A,3,,06,10,17,,24,26,30,,,,,2.9,1.4,2.5*3B
$GPGSV,2,1,08,05,15,188,32,06,65,314,52,10,54,055,51,17,28,271,47*78
$GPGSV,2,2,08,23,06,214,00,24,26,068,46,26,16,147,40,30,38,224,51*72
$GPGGA,151310,4011.115,N,10504.832,W,1,06,1.4,1540.8,M,-20.9,M,,*42
$GPGSA,A,3,,06,10,17,,24,26,30,,,,,2.9,1.4,2.5*3B
$GPGSV,2,1,08,05,15,188,32,06,65,314,52,10,54,055,51,17,28,271,47*78
$GPGSV,2,2,08,23,06,214,00,24,26,068,46,26,16,147,40,30,38,224,51*72
$GPGGA,151311,4011.115,N,10504.832,W,1,06,1.4,1541.2,M,-20.9,M,,*48
$GPGSA,A,3,,06,10,17,,24,26,30,,,,,2.9,1.4,2.5*3B
$GPGSV,2,1,08,05,15,188,32,06,65,314,52,10,54,055,51,17,28,271,47*78
$GPGSV,2,2,08,23,06,214,00,24,26,068,46,26,16,147,40,30,38,224,51*72
$GPGGA,151312,4011.115,N,10504.832,W,1,06,1.4,1541.5,M,-20.9,M,,*4C
$GPGSA,A,3,,06,10,17,,24,26,30,,,,,2.9,1.4,2.5*3B
$GPGSV,2,1,08,05,15,188,32,06,65,314,52,10,54,055,51,17,28,271,47*78
$GPGSV,2,2,08,23,06,214,00,24,26,068,46,26,16,147,40,30,38,224,51*72
$GPGGA,151313,4011.115,N,10504.832,W,1,06,1.4,1541.9,M,-20.9,M,,*41
$GPGSA,A,3,,06,10,17,,24,26,30,,,,,2.9,1.4,2.5*3B
$GPGSV,2,1,08,05,15,188,32,06,65,314,52,10,54,055,51,17,28,271,47*78
$GPGSV,2,2,08,23,06,214,00,24,26,068,46,26,16,147,40,30,38,224,51*72
$GPGGA,151314,4011.115,N,10504.832,W,1,06,1.4,1542.3,M,-20.9,M,,*4F
$GPGSA,A,3,,06,10,17,,24,26,30,,,,,2.9,1.4,2.5*3B
$GPGSV,2,1,08,05,15,188,32,06,65,314,52,10,54,055,51,17,28,271,47*78
$GPGSV,2,2,08,23,06,214,00,24,26,068,46,26,16,147,40,30,38,224,51*72
$GPGGA,151315,4011.115,N,10504.832,W,1,06,1.4,1542.6,M,-20.9,M,,*4B
$GPGSA,A,3,,06,10,17,,24,26,30,,,,,2.9,1.4,2.5*3B
$GPGSV,2,1,08,05,15,188,32,06,65,314,52,10,54,055,51,17,28,271,47*78
$GPGSV,2,2,08,23,06,214,00,24,26,068,46,26,16,147,40,30,38,224,51*72
$GPGGA,151316,4011.115,N,10504.832,W,1,06,1.4,1543.0,M,-20.9,M,,*4F
$GPGSA,A,3,,06,10,17,,24,26,30,,,,,2.9,1.4,2.5*3B
$GPGSV,2,1,08,05,15,188,32,06,65,314,52,10,54,055,51,17,28,271,47*78
$GPGSV,2,2,08,23,06,214,00,24,26,068,46,26,16,147,40,30,38,224,51*72
$GPGGA,151317,4011.115,N,10504.832,W,1,06,1.4,1543.5,M,-20.9,M,,*4B
$GPGSA,A,3,,06,10,17,,24,26,30,,,,,2.9,1.4,2.5*3B
$GPGSV,2,1,08,05,15,188,32,06,65,314,52,10,54,055,51,17,28,271,47*78
$GPGSV,2,2,08,23,06,214,00,24,26,068,46,26,16,147,40,30,38,224,51*72
$GPGGA,151318,4011.115,N,10504.832,W,1,06,1.4,1543.9,M,-20.9,M,,*48
$GPGSA,A,3,,06,10,17,,24,26,30,,,,,2.9,1.4,2.5*3B
$GPGSV,2,1,08,05,15,188,32,06,65,314,52,10,54,055,51,17,28,271,47*78
$GPGSV,2,2,08,23,06,214,00,24,26,068,46,26,16,147,40,30,38,224,51*72
$GPGGA,151319,4011.115,N,10504.832,W,1,06,1.4,1544.3,M,-20.9,M,,*44
$GPGSA,A,3,,06,10,17,,24,26,30,,,,,2.9,1.4,2.5*3B
$GPGSV,2,1,08,05,15,188,32,06,65,314,52,10,54,055,51,17,28,271,47*78
$GPGSV,2,2,08,23,06,214,00,24,26,068,46,26,16,147,40,30,38,224,51*72
$GPGGA,151320,4011.115,N,10504.832,W,1,06,1.4,1544.8,M,-20.9,M,,*45
$GPGSA,A,3,,06,10,17,,24,26,30,,,,,2.9,1.4,2.5*3B
$GPGSV,2,1,08,05,15,188,32,06,65,314,53,10,54,055,51,17,28,271,47*79
$GPGSV,2,2,08,23,06,214,00,24,26,068,46,26,16,147,40,30,38,224,51*72
$GPGGA,151321,4011.115,N,10504.832,W,1,06,1.4,1545.3,M,-20.9,M,,*4E
$GPGSA,A,3,,06,10,17,,24,26,30,,,,,2.9,1.4,2.5*3B
$GPGSV,2,1,08,05,15,188,32,06,65,314,53,10,54,054,51,17,28,271,47*78
$GPGSV,2,2,08,23,06,214,00,24,26,068,46,26,16,147,40,30,38,224,51*72
$GPGGA,151322,4011.115,N,10504.832,W,1,06,1.4,1545.9,M,-20.9,M,,*47
$GPGSA,A,3,,06,10,17,,24,26,30,,,,,2.9,1.4,2.5*3B
$GPGSV,2,1,08,05,15,188,32,06,65,314,53,10,54,054,51,17,28,271,47*78
$GPGSV,2,2,08,23,06,214,00,24,26,068,46,26,16,147,40,30,38,224,51*72
$GPGGA,151323,4011.115,N,10504.832,W,1,06,1.4,1546.5,M,-20.9,M,,*49
$GPGSA,A,3,,06,10,17,,24,26,30,,,,,2.9,1.4,2.5*3B
$GPGSV,2,1,08,05,15,188,32,06,65,314,53,10,54,054,51,17,28,271,47*78
$GPGSV,2,2,08,23,06,214,00,24,26,068,46,26,16,147,40,30,38,224,51*72
$GPGGA,151324,4011.115,N,10504.832,W,1,06,1.4,1547.1,M,-20.9,M,,*4B
$GPGSA,A,3,,06,10,17,,24,26,30,,,,,2.9,1.4,2.5*3B
$GPGSV,2,1,08,05,15,188,32,06,65,314,53,10,54,054,51,17,28,271,47*78
$GPGSV,2,2,08,23,06,214,00,24,26,068,46,26,16,147,40,30,38,224,51*72
$GPGGA,151325,4011.115,N,10504.832,W,1,06,1.4,1547.8,M,-20.9,M,,*43
$GPGSA,A,3,,06,10,17,,24,26,30,,,,,2.9,1.4,2.5*3B
$GPGSV,2,1,08,05,15,188,32,06,65,314,53,10,54,054,51,17,28,271,47*78
$GPGSV,2,2,08,23,06,214,00,24,26,068,46,26,16,147,40,30,38,224,51*72
$GPGGA,151326,4011.115,N,10504.832,W,1,06,1.4,1548.5,M,-20.9,M,,*42
$GPGSA,A,3,,06,10,17,,24,26,30,,,,,2.9,1.4,2.5*3B
$GPGSV,2,1,08,05,15,188,32,06,65,314,53,10,54,054,51,17,28,271,47*78
$GPGSV,2,2,08,23,06,214,00,24,26,068,46,26,16,147,40,30,38,224,51*72
$GPGGA,151327,4011.115,N,10504.832,W,1,06,1.4,1549.2,M,-20.9,M,,*45
$GPGSA,A,3,,06,10,17,,24,26,30,,,,,2.9,1.4,2.5*3B
$GPGSV,2,1,08,05,15,188,32,06,65,314,53,10,54,054,51,17,28,271,47*78
$GPGSV,2,2,08,23,06,214,00,24,26,068,46,26,16,147,40,30,38,224,51*72
$GPGGA,151328,4011.114,N,10504.832,W,1,06,1.4,1549.9,M,-20.9,M,,*40
$GPGSA,A,3,,06,10,17,,24,26,30,,,,,2.9,1.4,2.5*3B
$GPGSV,2,1,08,05,15,188,32,06,65,314,53,10,54,054,51,17,28,271,47*78
$GPGSV,2,2,08,23,06,214,00,24,26,068,46,26,16,147,40,30,38,224,51*72
$GPGGA,151329,4011.114,N,10504.832,W,1,06,1.4,1550.7,M,-20.9,M,,*47
$GPGSA,A,3,,06,10,17,,24,26,30,,,,,2.9,1.4,2.5*3B
$GPGSV,2,1,08,05,15,188,32,06,65,314,53,10,54,054,51,17,28,271,47*78
$GPGSV,2,2,08,23,06,214,00,24,26,068,46,26,16,147,40,30,38,224,51*72
$GPGGA,151330,4011.114,N,10504.832,W,1,06,1.4,1551.5,M,-20.9,M,,*4C
$GPGSA,A,3,,06,10,17,,24,26,30,,,,,2.9,1.4,2.5*3B
$GPGSV,2,1,08,05,15,188,32,06,65,314,53,10,54,054,51,17,28,271,47*78
$GPGSV,2,2,08,23,06,214,00,24,26,068,46,26,16,147,40,30,38,224,51*72
$GPGGA,151331,4011.114,N,10504.832,W,1,06,1.4,1552.3,M,-20.9,M,,*48
$GPGSA,A,3,,06,10,17,,24,26,30,,,,,2.9,1.4,2.5*3B
$GPGSV,2,1,08,05,15,188,32,06,65,314,53,10,54,054,51,17,28,271,47*78
$GPGSV,2,2,08,23,06,214,00,24,26,068,46,26,16,147,40,30,38,224,51*72
$GPGGA,151332,4011.114,N,10504.832,W,1,06,1.4,1553.1,M,-20.9,M,,*48
$GPGSA,A,3,,06,10,17,,24,26,30,,,,,2.9,1.4,2.5*3B
$GPGSV,2,1,08,05,15,188,32,06,65,314,53,10,54,054,51,17,28,271,47*78
$GPGSV,2,2,08,23,06,214,00,24,26,068,46,26,16,147,40,30,38,224,51*72
$GPGGA,151333,4011.113,N,10504.832,W,1,06,1.4,1554.0,M,-20.9,M,,*48
$GPGSA,A,3,,06,10,17,,24,26,30,,,,,2.9,1.4,2.5*3B
$GPGSV,2,1,08,05,15,188,32,06,65,314,53,10,54,054,51,17,28,271,47*78
$GPGSV,2,2,08,23,06,214,00,24,26,068,46,26,16,147,41,30,38,224,52*70
$GPGGA,151334,4011.113,N,10504.832,W,1,06,1.4,1554.8,M,-20.9,M,,*47
$GPGSA,A,3,,06,10,17,,24,26,30,,,,,2.9,1.4,2.5*3B
$GPGSV,2,1,08,05,15,188,32,06,65,314,53,10,54,054,51,17,28,271,48*77
$GPGSV,2,2,08,23,06,214,00,24,26,068,46,26,16,147,41,30,38,224,52*70
$GPGGA,151335,4011.113,N,10504.832,W,1,06,1.4,1555.6,M,-20.9,M,,*49
$GPGSA,A,3,,06,10,17,,24,26,30,,,,,2.9,1.4,2.5*3B
$GPGSV,2,1,08,05,15,188,32,06,65,314,53,10,54,054,51,17,28,271,48*77
$GPGSV,2,2,08,23,06,214,00,24,26,068,46,26,16,147,41,30,38,224,52*70
$GPGGA,151336,4011.113,N,10504.832,W,1,06,1.4,1556.4,M,-20.9,M,,*4B
$GPGSA,A,3,,06,10,17,,24,26,30,,,,,2.9,1.4,2.5*3B
$GPGSV,2,1,08,05,15,188,32,06,65,314,53,10,54,054,51,17,28,271,48*77
$GPGSV,2,2,08,23,06,214,00,24,26,068,46,26,16,147,41,30,38,224,52*70
$GPGGA,151337,4011.113,N,10504.832,W,1,06,1.4,1557.2,M,-20.9,M,,*4D
$GPGSA,A,3,,06,10,17,,24,26,30,,,,,2.9,1.4,2.5*3B
$GPGSV,2,1,08,05,15,188,32,06,65,314,53,10,54,054,51,17,28,271,48*77
$GPGSV,2,2,08,23,06,214,00,24,26,068,46,26,16,147,41,30,38,224,52*70
$GPGGA,151338,4011.112,N,10504.832,W,1,06,1.4,1558.0,M,-20.9,M,,*4E
$GPGSA,A,3,,06,10,17,,24,26,30,,,,,2.9,1.4,2.5*3B
$GPGSV,2,1,08,05,15,188,32,06,65,314,53,10,54,054,51,17,28,271,48*77
$GPGSV,2,2,08,23,06,214,00,24,26,068,46,26,16,147,41,30,38,224,52*70
$GPGGA,151339,4011.112,N,10504.832,W,1,06,1.4,1558.8,M,-20.9,M,,*47
$GPGSA,A,3,,06,10,17,,24,26,30,,,,,2.9,1.4,2.5*3B
$GPGSV,2,1,08,05,15,188,32,06,65,314,54,10,54,054,51,17,28,271,48*70
$GPGSV,2,2,08,23,06,214,00,24,26,068,46,26,16,147,41,30,38,224,52*70
$GPGGA,151340,4011.112,N,10504.832,W,1,06,1.4,1559.6,M,-20.9,M,,*46
$GPGSA,A,3,,06,10,17,,24,26,30,,,,,2.9,1.4,2.5*3B
$GPGSV,2,1,08,05,15,188,32,06,65,314,54,10,54,054,51,17,28,271,48*70
$GPGSV,2,2,08,23,06,214,00,24,26,068,46,26,16,147,41,30,38,224,52*70
$GPGGA,151341,4011.112,N,10504.832,W,1,06,1.4,1560.3,M,-20.9,M,,*48
$GPGSA,A,3,,06,10,17,,24,26,30,,,,,2.9,1.4,2.5*3B
$GPGSV,2,1,08,05,15,188,32,06,65,314,54,10,54,054,51,17,28,271,48*70
$GPGSV,2,2,08,23,06,214,00,24,26,068,46,26,16,147,41,30,38,224,52*70
$GPGGA,151342,4011.112,N,10504.832,W,1,06,1.4,1561.0,M,-20.9,M,,*49
$GPGSA,A,3,,06,10,17,,24,26,30,,,,,2.9,1.4,2.5*3B
$GPGSV,2,1,08,05,15,188,32,06,65,314,54,10,54,054,51,17,28,271,48*70
$GPGSV,2,2,08,23,06,214,00,24,26,068,46,26,16,147,41,30,38,224,52*70
$GPGGA,151343,4011.112,N,10504.832,W,1,06,1.4,1561.7,M,-20.9,M,,*4F
$GPGSA,A,3,,06,10,17,,24,26,30,,,,,2.9,1.4,2.5*3B
$GPGSV,2,1,08,05,15,188,33,06,65,314,54,10,54,054,51,17,28,271,48*71
$GPGSV,2,2,08,23,06,214,00,24,26,068,46,26,16,147,41,30,38,224,52*70
$GPGGA,151344,4011.112,N,10504.832,W,1,06,1.4,1562.4,M,-20.9,M,,*48
$GPGSA,A,3,,06,10,17,,24,26,30,,,,,2.9,1.4,2.5*3B
$GPGSV,2,1,08,05,15,188,33,06,65,314,54,10,54,054,51,17,28,271,48*71
$GPGSV,2,2,08,23,06,214,00,24,26,068,46,26,16,147,41,30,38,224,52*70
$GPGGA,151345,4011.111,N,10504.832,W,1,06,1.4,1563.1,M,-20.9,M,,*4E
$GPGSA,A,3,,06,10,17,,24,26,30,,,,,2.9,1.4,2.5*3B
$GPGSV,2,1,08,05,15,188,33,06,65,314,54,10,54,054,51,17,28,271,48*71
$GPGSV,2,2,08,23,06,214,00,24,26,068,46,26,16,147,41,30,38,224,52*70
$GPGGA,151346,4011.111,N,10504.832,W,1,06,1.4,1563.8,M,-20.9,M,,*44
$GPGSA,A,3,,06,10,17,,24,26,30,,,,,2.9,1.4,2.5*3B
$GPGSV,2,1,08,05,15,188,34,06,65,314,54,10,54,054,51,17,28,271,48*76
$GPGSV,2,2,08,23,06,214,00,24,26,068,46,26,16,147,41,30,38,224,52*70
$GPGGA,151347,4011.111,N,10504.832,W,1,06,1.4,1564.5,M,-20.9,M,,*4F
$GPGSA,A,3,,06,10,17,,24,26,30,,,,,2.9,1.4,2.5*3B
$GPGSV,2,1,08,05,15,188,34,06,65,314,54,10,54,054,51,17,28,271,48*76
$GPGSV,2,2,08,23,06,214,00,24,26,068,46,26,16,147,41,30,38,224,52*70
$GPGGA,151348,4011.111,N,10504.832,W,1,06,1.4,1565.2,M,-20.9,M,,*46
$GPGSA,A,3,,06,10,17,,24,26,30,,,,,2.9,1.4,2.5*3B
$GPGSV,2,1,08,05,15,188,35,06,65,314,54,10,54,054,51,17,28,271,48*77
$GPGSV,2,2,08,23,06,214,00,24,26,068,46,26,16,147,41,30,38,224,52*70
$GPGGA,151349,4011.111,N,10504.832,W,1,06,1.4,1566.0,M,-20.9,M,,*46
$GPGSA,A,3,,06,10,17,,24,26,30,,,,,2.9,1.4,2.5*3B
$GPGSV,2,1,08,05,15,188,35,06,65,314,54,10,54,054,51,17,29,272,48*75
$GPGSV,2,2,08,23,06,214,00,24,26,068,45,26,16,147,41,30,38,224,52*73
$GPGGA,151350,4011.111,N,10504.832,W,1,06,1.4,1566.8,M,-20.9,M,,*46
$GPGSA,A,3,,06,10,17,,24,26,30,,,,,2.9,1.4,2.5*3B
$GPGSV,2,1,08,05,15,188,35,06,65,314,54,10,54,054,51,17,29,272,48*75
$GPGSV,2,2,08,23,06,214,00,24,26,068,46,26,16,147,41,30,38,224,52*70
$GPGGA,151351,4011.111,N,10504.832,W,1,06,1.4,1567.5,M,-20.9,M,,*4B
$GPGSA,A,3,,06,10,17,,24,26,30,,,,,2.9,1.4,2.5*3B
$GPGSV,2,1,08,05,15,188,35,06,65,314,54,10,54,054,51,17,29,272,48*75
$GPGSV,2,2,08,23,06,214,00,24,26,068,46,26,16,147,42,30,38,224,52*73
$GPGGA,151352,4011.111,N,10504.832,W,1,06,1.4,1568.3,M,-20.9,M,,*41
$GPGSA,A,3,,06,10,17,,24,26,30,,,,,2.9,1.4,2.5*3B
$GPGSV,2,1,08,05,15,188,35,06,65,314,54,10,54,054,50,17,29,272,48*74
$GPGSV,2,2,08,23,06,214,00,24,26,068,45,26,16,147,42,30,38,224,52*70
$GPGGA,151353,4011.110,N,10504.832,W,1,06,1.4,1569.2,M,-20.9,M,,*41
$GPGSA,A,3,,06,10,17,,24,26,30,,,,,2.9,1.4,2.5*3B
$GPGSV,2,1,08,05,15,188,36,06,65,314,54,10,54,054,50,17,29,272,48*77
$GPGSV,2,2,08,23,06,214,00,24,26,068,45,26,16,147,42,30,38,224,52*70
$GPGGA,151354,4011.110,N,10504.832,W,1,06,1.4,1570.0,M,-20.9,M,,*4C
$GPGSA,A,3,,06,10,17,,24,26,30,,,,,2.9,1.4,2.5*3B
$GPGSV,2,1,08,05,15,188,36,06,65,314,54,10,54,054,50,17,29,272,48*77
$GPGSV,2,2,08,23,06,214,00,24,26,068,45,26,16,147,41,30,38,224,52*73
$GPGGA,151355,4011.110,N,10504.832,W,1,06,1.4,1570.9,M,-20.9,M,,*44
$GPGSA,A,3,,06,10,17,,24,26,30,,,,,2.9,1.4,2.5*3B
$GPGSV,2,1,08,05,15,188,36,06,65,314,54,10,54,054,50,17,29,272,48*77
$GPGSV,2,2,08,23,06,214,00,24,26,068,46,26,16,147,41,30,38,224,52*70
$GPGGA,151356,4011.110,N,10504.832,W,1,06,1.4,1571.8,M,-20.9,M,,*47
$GPGSA,A,3,,06,10,17,,24,26,30,,,,,2.9,1.4,2.5*3B
$GPGSV,2,1,08,05,15,188,36,06,65,314,54,10,54,054,50,17,29,272,48*77
$GPGSV,2,2,08,23,06,214,00,24,26,068,46,26,16,147,41,30,38,224,52*70
$GPGGA,151357,4011.110,N,10504.832,W,1,06,1.4,1572.7,M,-20.9,M,,*4A
$GPGSA,A,3,,06,10,17,,24,26,30,,,,,2.9,1.4,2.5*3B
$GPGSV,2,1,08,05,15,188,36,06,65,314,54,10,54,054,50,17,29,272,48*77
$GPGSV,2,2,08,23,06,214,00,24,26,068,46,26,16,147,41,30,38,224,52*70
$GPGGA,151358,4011.110,N,10504.832,W,1,06,1.4,1573.6,M,-20.9,M,,*45
$GPGSA,A,3,,06,10,17,,24,26,30,,,,,2.9,1.4,2.5*3B
$GPGSV,2,1,08,05,15,188,36,06,65,314,54,10,54,054,50,17,29,272,48*77
$GPGSV,2,2,08,23,06,214,00,24,26,068,46,26,16,147,41,30,38,224,52*70
$GPGGA,151359,4011.110,N,10504.832,W,1,06,1.4,1574.5,M,-20.9,M,,*40
$GPGSA,A,3,,06,10,17,,24,26,30,,,,,2.9,1.4,2.5*3B
$GPGSV,2,1,08,05,15,188,36,06,65,314,55,10,54,054,50,17,29,272,47*79
$GPGSV,2,2,08,23,06,214,00,24,26,068,46,26,16,147,41,30,38,224,52*70
$GPGGA,151400,4011.109,N,10504.832,W,1,06,1.4,1575.4,M,-20.9,M,,*43
$GPGSA,A,3,,06,10,17,,24,26,30,,,,,2.9,1.4,2.5*3B
$GPGSV,2,1,08,05,15,188,37,06,65,314,55,10,54,054,50,17,29,272,47*78
$GPGSV,2,2,08,23,06,214,00,24,26,068,46,26,16,147,41,30,38,224,52*70
$GPGGA,151401,4011.109,N,10504.832,W,1,06,1.4,1576.4,M,-20.9,M,,*41
$GPGSA,A,3,,06,10,17,,24,26,30,,,,,2.9,1.4,2.5*3B
$GPGSV,2,1,08,05,15,188,37,06,65,314,55,10,54,054,50,17,29,272,47*78
$GPGSV,2,2,08,23,06,214,00,24,26,068,46,26,16,147,41,30,38,224,52*70
$GPGGA,151402,4011.109,N,10504.832,W,1,06,1.4,1577.2,M,-20.9,M,,*45
$GPGSA,A,3,,06,10,17,,24,26,30,,,,,2.9,1.4,2.5*3B
$GPGSV,2,1,08,05,15,188,37,06,65,314,55,10,54,054,50,17,29,272,47*78
$GPGSV,2,2,08,23,06,214,00,24,26,068,46,26,16,147,41,30,38,224,52*70
$GPGGA,151403,4011.109,N,10504.832,W,1,06,1.4,1578.2,M,-20.9,M,,*4B
$GPGSA,A,3,,06,10,17,,24,26,30,,,,,2.9,1.4,2.5*3B
$GPGSV,2,1,08,05,15,188,37,06,65,314,55,10,54,054,50,17,29,272,47*78
$GPGSV,2,2,08,23,06,214,00,24,26,068,46,26,16,147,41,30,38,224,52*70
$GPGGA,151404,4011.109,N,10504.832,W,1,06,1.4,1579.1,M,-20.9,M,,*4E
$GPGSA,A,3,,06,10,17,,24,26,30,,,,,2.9,1.4,2.5*3B
$GPGSV,2,1,08,05,15,188,37,06,65,314,55,10,54,054,50,17,29,272,47*78
$GPGSV,2,2,08,23,06,214,00,24,26,068,46,26,16,147,41,30,38,224,52*70
$GPGGA,151405,4011.109,N,10504.832,W,1,06,1.4,1580.0,M,-20.9,M,,*48
$GPGSA,A,3,,06,10,17,,24,26,30,,,,,2.9,1.4,2.5*3B
$GPGSV,2,1,08,05,15,188,37,06,65,314,55,10,54,054,50,17,29,272,46*79
$GPGSV,2,2,08,23,06,214,00,24,26,068,46,26,16,147,41,30,38,224,52*70
$GPGGA,151406,4011.109,N,10504.832,W,1,06,1.4,1580.8,M,-20.9,M,,*43
$GPGSA,A,3,,06,10,17,,24,26,30,,,,,2.9,1.4,2.5*3B
$GPGSV,2,1,08,05,15,188,36,06,65,314,55,10,54,054,50,17,29,272,46*78
$GPGSV,2,2,08,23,06,214,00,24,26,068,46,26,16,147,41,30,38,224,52*70
$GPGGA,151407,4011.108,N,10504.832,W,1,06,1.4,1581.5,M,-20.9,M,,*4F
$GPGSA,A,3,,06,10,17,,24,26,30,,,,,2.9,1.4,2.5*3B
$GPGSV,2,1,08,05,15,188,37,06,65,314,55,10,54,054,50,17,29,272,46*79
$GPGSV,2,2,08,23,06,214,00,24,26,068,45,26,16,147,41,30,38,224,52*73
$GPGGA,151408,4011.108,N,10504.832,W,1,06,1.4,1582.2,M,-20.9,M,,*44
$GPGSA,A,3,,06,10,17,,24,26,30,,,,,2.9,1.4,2.5*3B
$GPGSV,2,1,08,05,15,188,37,06,65,314,55,10,54,054,50,17,29,272,46*79
$GPGSV,2,2,08,23,06,214,00,24,26,068,45,26,16,147,41,30,38,224,52*73
$GPGGA,151409,4011.108,N,10504.832,W,1,06,1.4,1582.9,M,-20.9,M,,*4E
$GPGSA,A,3,,06,10,17,,24,26,30,,,,,2.9,1.4,2.5*3B
$GPGSV,2,1,08,05,15,188,36,06,65,314,55,10,54,054,50,17,29,272,46*78
$GPGSV,2,2,08,23,06,214,00,24,26,068,45,26,16,147,41,30,38,224,52*73
$GPGGA,151410,4011.108,N,10504.833,W,1,06,1.4,1583.6,M,-20.9,M,,*49
$GPGSA,A,3,,06,10,17,,24,26,30,,,,,2.9,1.4,2.5*3B
$GPGSV,2,1,08,05,15,188,36,06,65,314,55,10,54,054,50,17,29,272,46*78
$GPGSV,2,2,08,23,06,214,00,24,26,068,45,26,16,147,41,30,38,224,52*73
$GPGGA,151411,4011.108,N,10504.833,W,1,06,1.4,1584.2,M,-20.9,M,,*4B
$GPGSA,A,3,,06,10,17,,24,26,30,,,,,2.9,1.4,2.5*3B
$GPGSV,2,1,08,05,15,188,36,06,65,314,55,10,54,054,50,17,29,272,46*78
$GPGSV,2,2,08,23,06,214,00,24,26,068,45,26,16,147,41,30,38,224,52*73
$GPGGA,151412,4011.108,N,10504.833,W,1,06,1.4,1584.8,M,-20.9,M,,*42
$GPGSA,A,3,,06,10,17,,24,26,30,,,,,2.9,1.4,2.5*3B
$GPGSV,2,1,08,05,15,188,36,06,65,314,55,10,54,054,50,17,29,272,46*78
$GPGSV,2,2,08,23,06,214,00,24,26,068,45,26,16,147,41,30,38,224,51*70
$GPGGA,151413,4011.108,N,10504.833,W,1,06,1.4,1585.5,M,-20.9,M,,*4F
$GPGSA,A,3,,06,10,17,,24,26,30,,,,,2.9,1.4,2.5*3B
$GPGSV,2,1,08,05,15,188,36,06,65,314,55,10,54,054,50,17,29,272,46*78
$GPGSV,2,2,08,23,07,214,00,24,26,068,45,26,16,147,41,30,38,224,51*71
$GPGGA,151414,4011.108,N,10504.833,W,1,06,1.4,1586.1,M,-20.9,M,,*4F
$GPGSA,A,3,,06,10,17,,24,26,30,,,,,2.9,1.4,2.5*3B
$GPGSV,2,1,08,05,15,188,36,06,65,314,55,10,54,054,50,17,29,272,45*7B
$GPGSV,2,2,08,23,07,214,00,24,26,068,45,26,16,147,41,30,38,224,51*71
$GPGGA,151415,4011.107,N,10504.833,W,1,06,1.4,1586.8,M,-20.9,M,,*48
$GPGSA,A,3,,06,10,17,,24,26,30,,,,,2.9,1.4,2.5*3B
$GPGSV,2,1,08,05,15,188,36,06,65,314,55,10,54,054,50,17,29,272,45*7B
$GPGSV,2,2,08,23,07,214,00,24,26,068,45,26,16,147,41,30,38,224,51*71
$GPGGA,151416,4011.107,N,10504.833,W,1,06,1.4,1587.5,M,-20.9,M,,*47
$GPGSA,A,3,,06,10,17,,24,26,30,,,,,2.9,1.4,2.5*3B
$GPGSV,2,1,08,05,15,188,35,06,65,314,55,10,54,054,50,17,29,272,45*78
$GPGSV,2,2,08,23,07,214,00,24,26,068,45,26,16,147,41,30,38,224,51*71
$GPGGA,151417,4011.107,N,10504.833,W,1,06,1.4,1588.3,M,-20.9,M,,*4F
$GPGSA,A,3,,06,10,17,,24,26,30,,,,,2.9,1.4,2.5*3B
$GPGSV,2,1,08,05,15,188,35,06,65,314,55,10,54,054,50,17,29,272,45*78
$GPGSV,2,2,08,23,07,214,00,24,25,069,45,26,16,147,41,30,38,224,51*73
$GPGGA,151418,4011.107,N,10504.833,W,1,06,1.4,1589.0,M,-20.9,M,,*42
$GPGSA,A,3,,06,10,17,,24,26,30,,,,,2.9,1.4,2.5*3B
$GPGSV,2,1,08,05,15,188,36,06,65,314,55,10,54,054,50,17,29,272,45*7B
$GPGSV,2,2,08,23,07,214,00,24,25,069,45,26,16,147,41,30,38,224,51*73
$GPGGA,151419,4011.107,N,10504.833,W,1,06,1.4,1589.8,M,-20.9,M,,*4B
$GPGSA,A,3,,06,10,17,,24,26,30,,,,,2.9,1.4,2.5*3B
$GPGSV,2,1,08,05,15,188,36,06,65,314,55,10,54,054,50,17,29,272,45*7B
$GPGSV,2,2,08,23,07,214,00,24,25,069,45,26,16,147,40,30,38,224,51*72
$GPGGA,151420,4011.107,N,10504.833,W,1,06,1.4,1590.6,M,-20.9,M,,*47
$GPGSA,A,3,,06,10,17,,24,26,30,,,,,2.9,1.4,2.5*3B
$GPGSV,2,1,08,05,15,188,35,06,65,314,43,10,54,054,50,17,29,272,46*7C
$GPGSV,2,2,08,23,07,214,00,24,25,069,45,26,16,147,41,30,38,224,51*73
$GPGGA,151421,4011.106,N,10504.833,W,1,06,1.4,1591.5,M,-20.9,M,,*45
$GPGSA,A,3,,06,10,17,,24,26,30,,,,,2.9,1.4,2.5*3B
$GPGSV,2,1,08,05,15,188,35,06,65,314,48,10,54,054,50,17,29,272,46*77
$GPGSV,2,2,08,23,07,214,00,24,25,069,45,26,16,147,40,30,38,224,51*72
$GPGGA,151422,4011.106,N,10504.833,W,1,06,1.4,1592.4,M,-20.9,M,,*44
$GPGSA,A,3,,06,10,17,,24,26,30,,,,,2.9,1.4,2.5*3B
$GPGSV,2,1,08,05,15,188,35,06,65,314,50,10,54,054,50,17,29,272,46*7E
$GPGSV,2,2,08,23,07,214,00,24,25,069,45,26,16,147,40,30,38,224,51*72
$GPGGA,151423,4011.106,N,10504.833,W,1,06,1.4,1593.3,M,-20.9,M,,*43
$GPGSA,A,3,,06,10,17,,24,26,30,,,,,2.9,1.4,2.5*3B
$GPGSV,2,1,08,05,15,188,35,06,65,314,52,10,54,054,50,17,29,272,46*7C
$GPGSV,2,2,08,23,07,214,00,24,25,069,45,26,16,147,40,30,38,224,51*72
$GPGGA,151424,4011.106,N,10504.833,W,1,06,1.4,1594.3,M,-20.9,M,,*43
$GPGSA,A,3,,06,10,17,,24,26,30,,,,,2.9,1.4,2.5*3B
$GPGSV,2,1,08,05,15,188,35,06,65,314,53,10,54,054,50,17,29,272,46*7D
$GPGSV,2,2,08,23,07,214,00,24,25,069,45,26,16,147,41,30,38,224,51*73
$GPGGA,151425,4011.106,N,10504.833,W,1,06,1.4,1595.2,M,-20.9,M,,*42
$GPGSA,A,3,,06,10,17,,24,26,30,,,,,2.9,1.4,2.5*3B
$GPGSV,2,1,08,05,15,188,35,06,65,314,53,10,54,054,50,17,29,272,46*7D
$GPGSV,2,2,08,23,07,214,00,24,25,069,45,26,16,146,40,30,38,224,51*73
$GPGGA,151426,4011.105,N,10504.833,W,1,06,1.4,1596.2,M,-20.9,M,,*41
$GPGSA,A,3,,06,10,17,,24,26,30,,,,,2.9,1.4,2.5*3B
$GPGSV,2,1,08,05,15,188,35,06,65,314,54,10,54,054,50,17,29,272,46*7A
$GPGSV,2,2,08,23,07,214,00,24,25,069,45,26,16,146,40,30,38,224,51*73
$GPGGA,151427,4011.105,N,10504.833,W,1,06,1.4,1597.2,M,-20.9,M,,*41
$GPGSA,A,3,,06,10,17,,24,26,30,,,,,2.9,1.4,2.5*3B
$GPGSV,2,1,08,05,15,188,34,06,65,314,54,10,54,054,50,17,29,272,46*7B
$GPGSV,2,2,08,23,07,214,00,24,25,069,45,26,16,146,40,30,38,224,51*73
$GPGGA,151428,4011.105,N,10504.833,W,1,06,1.4,1598.2,M,-20.9,M,,*41
$GPGSA,A,3,,06,10,17,,24,26,30,,,,,2.9,1.4,2.5*3B
$GPGSV,2,1,08,05,15,188,34,06,65,314,54,10,54,054,50,17,29,272,46*7B
$GPGSV,2,2,08,23,07,214,00,24,25,069,45,26,16,146,40,30,38,224,51*73
$GPGGA,151429,4011.105,N,10504.833,W,1,06,1.4,1599.2,M,-20.9,M,,*41
$GPGSA,A,3,,06,10,17,,24,26,30,,,,,2.9,1.4,2.5*3B
$GPGSV,2,1,08,05,15,188,34,06,65,314,55,10,54,054,50,17,29,272,47*7B
$GPGSV,2,2,08,23,07,214,00,24,25,069,45,26,16,146,40,30,38,224,51*73
$GPGGA,151430,4011.104,N,10504.833,W,1,06,1.4,1600.2,M,-20.9,M,,*4B
$GPGSA,A,3,,06,10,17,,24,26,30,,,,,2.9,1.4,2.5*3B
$GPGSV,2,1,08,05,15,188,35,06,65,314,55,10,54,054,50,17,29,272,47*7A
$GPGSV,2,2,08,23,07,214,00,24,25,069,45,26,16,146,41,30,38,224,50*73
$GPGGA,151431,4011.104,N,10504.832,W,1,06,1.4,1601.2,M,-20.9,M,,*4A
$GPGSA,A,3,,06,10,17,,24,26,30,,,,,2.9,1.4,2.5*3B
$GPGSV,2,1,08,05,15,188,34,06,65,314,43,10,54,054,50,17,29,272,47*7C
$GPGSV,2,2,08,23,07,214,00,24,25,069,45,26,16,146,41,30,38,224,50*73
$GPGGA,151432,4011.104,N,10504.832,W,1,06,1.4,1602.2,M,-20.9,M,,*4A
$GPGSA,A,3,,06,10,17,,24,26,30,,,,,2.9,1.4,2.5*3B
$GPGSV,2,1,08,05,15,188,33,06,65,314,50,10,54,054,50,17,29,272,47*79
$GPGSV,2,2,08,23,07,214,00,24,25,069,45,26,16,146,41,30,38,224,50*73
$GPGGA,151433,4011.104,N,10504.832,W,1,06,1.4,1603.2,M,-20.9,M,,*4A
$GPGSA,A,3,,06,10,17,,24,26,30,,,,,2.9,1.4,2.5*3B
$GPGSV,2,1,08,05,15,188,33,06,65,314,52,10,54,054,50,17,29,272,47*7B
$GPGSV,2,2,08,23,07,214,00,24,25,069,45,26,16,146,41,30,38,224,50*73
$GPGGA,151434,4011.103,N,10504.832,W,1,06,1.4,1604.2,M,-20.9,M,,*4D
$GPGSA,A,3,,06,10,17,,24,26,30,,,,,2.9,1.4,2.5*3B
$GPGSV,2,1,08,05,15,188,33,06,65,314,53,10,54,054,50,17,29,272,47*7A
$GPGSV,2,2,08,23,07,214,00,24,25,069,45,26,16,146,41,30,38,224,50*73
$GPGGA,151435,4011.103,N,10504.832,W,1,06,1.4,1605.2,M,-20.9,M,,*4D
$GPGSA,A,3,,06,10,17,,24,26,30,,,,,2.9,1.4,2.5*3B
$GPGSV,2,1,08,05,15,188,33,06,65,314,53,10,54,054,50,17,29,272,47*7A
$GPGSV,2,2,08,23,07,214,00,24,25,069,45,26,16,146,41,30,38,224,50*73
$GPGGA,151436,4011.103,N,10504.832,W,1,06,1.4,1606.2,M,-20.9,M,,*4D
$GPGSA,A,3,,06,10,17,,24,26,30,,,,,2.9,1.4,2.5*3B
$GPGSV,2,1,08,05,15,188,33,06,65,314,54,10,54,054,50,17,29,272,47*7D
$GPGSV,2,2,08,23,07,214,00,24,25,069,45,26,16,146,41,30,38,224,50*73
$GPGGA,151437,4011.103,N,10504.832,W,1,06,1.4,1607.1,M,-20.9,M,,*4E
$GPGSA,A,3,,06,10,17,,24,26,30,,,,,2.9,1.4,2.5*3B
$GPGSV,2,1,08,05,15,188,33,06,65,314,54,10,54,054,50,17,29,272,47*7D
$GPGSV,2,2,08,23,07,214,00,24,25,069,45,26,16,146,41,30,38,224,50*73
$GPGGA,151438,4011.102,N,10504.832,W,1,06,1.4,1608.1,M,-20.9,M,,*4F
$GPGSA,A,3,,06,10,17,,24,26,30,,,,,2.9,1.4,2.5*3B
$GPGSV,2,1,08,05,15,188,32,06,65,314,54,10,54,054,50,17,29,272,48*73
$GPGSV,2,2,08,23,07,214,00,24,25,069,45,26,16,146,41,30,38,224,50*73
$GPGGA,151439,4011.102,N,10504.832,W,1,06,1.4,1609.1,M,-20.9,M,,*4F
$GPGSA,A,3,,06,10,17,,24,26,30,,,,,2.9,1.4,2.5*3B
$GPGSV,2,1,08,05,15,188,32,06,65,314,55,10,54,054,50,17,29,272,48*72
$GPGSV,2,2,08,23,07,214,00,24,25,069,45,26,16,146,41,30,38,224,50*73
$GPGGA,151440,4011.102,N,10504.832,W,1,06,1.4,1610.1,M,-20.9,M,,*49
$GPGSA,A,3,,06,10,17,,24,26,30,,,,,2.9,1.4,2.5*3B
$GPGSV,2,1,08,05,15,188,32,06,65,314,55,10,54,054,50,17,29,272,48*72
$GPGSV,2,2,08,23,07,214,00,24,25,069,45,26,16,146,41,30,38,224,50*73
$GPGGA,151441,4011.102,N,10504.832,W,1,06,1.4,1611.1,M,-20.9,M,,*49
$GPGSA,A,3,,06,10,17,,24,26,30,,,,,2.9,1.4,2.5*3B
$GPGSV,2,1,08,05,15,188,32,06,65,314,43,10,54,054,50,17,29,272,48*75
$GPGSV,2,2,08,23,07,214,00,24,25,069,45,26,16,146,41,30,38,223,50*74
$GPGGA,151442,4011.102,N,10504.831,W,1,06,1.4,1612.0,M,-20.9,M,,*4B
$GPGSA,A,3,,06,10,17,,24,26,30,,,,,2.9,1.4,2.5*3B
$GPGSV,2,1,08,05,15,188,32,06,65,314,48,10,54,054,50,17,29,272,48*7E
$GPGSV,2,2,08,23,07,214,00,24,25,069,45,26,16,146,41,30,38,223,50*74
$GPGGA,151443,4011.101,N,10504.831,W,1,06,1.4,1612.9,M,-20.9,M,,*40
$GPGSA,A,3,,06,10,17,,24,26,30,,,,,2.9,1.4,2.5*3B
$GPGSV,2,1,08,05,15,188,32,06,65,314,50,10,54,054,50,17,29,272,48*77
$GPGSV,2,2,08,23,07,214,00,24,25,069,44,26,16,146,41,30,38,223,50*75
$GPGGA,151444,4011.101,N,10504.831,W,1,06,1.4,1613.8,M,-20.9,M,,*47
$GPGSA,A,3,,06,10,17,,24,26,30,,,,,2.9,1.4,2.5*3B
$GPGSV,2,1,08,05,15,188,32,06,65,314,52,10,54,054,50,17,29,272,48*75
$GPGSV,2,2,08,23,07,214,00,24,25,069,44,26,16,146,41,30,38,223,50*75
$GPGGA,151445,4011.101,N,10504.831,W,1,06,1.4,1614.7,M,-20.9,M,,*4E
$GPGSA,A,3,,06,10,17,,24,26,30,,,,,2.9,1.4,2.5*3B
$GPGSV,2,1,08,05,15,188,32,06,65,314,53,10,54,054,50,17,29,272,48*74
$GPGSV,2,2,08,23,07,214,00,24,25,069,44,26,16,146,41,30,38,223,50*75
$GPGGA,151446,4011.101,N,10504.831,W,1,06,1.4,1615.6,M,-20.9,M,,*4D
$GPGSA,A,3,,06,10,17,,24,26,30,,,,,2.9,1.4,2.5*3B
$GPGSV,2,1,08,05,15,188,32,06,65,314,54,10,54,054,50,17,29,272,48*73
$GPGSV,2,2,08,23,07,214,00,24,25,069,44,26,16,146,42,30,38,223,50*76
$GPGGA,151447,4011.100,N,10504.831,W,1,06,1.4,1616.6,M,-20.9,M,,*4E
$GPGSA,A,3,,06,10,17,,24,26,30,,,,,2.9,1.4,2.5*3B
$GPGSV,2,1,08,05,15,188,32,06,65,314,54,10,54,054,50,17,29,272,48*73
$GPGSV,2,2,08,23,07,214,00,24,25,069,44,26,16,146,42,30,38,223,50*76
